City_ID,City,Country,Date,Lat,Lng,Max Temp,Humidity,Cloudiness,Wind Speed,Current Description,Rain inches (last 3 hrs),Snow inches (last 3 hrs)
0,Great Falls,US,2020-02-21 07:12:14,47.5,-111.3,41.0,23,75,25.28,broken clouds,0.0,0.0
1,Hithadhoo,MV,2020-02-21 07:12:14,-0.6,73.08,84.24,77,7,14.45,light rain,0.44,0.0
2,Necochea,AR,2020-02-21 07:12:14,-38.55,-58.74,57.99,64,62,21.99,light rain,0.19,0.0
3,Kodiak,US,2020-02-21 07:12:14,57.79,-152.41,32.0,74,90,10.29,overcast clouds,0.0,0.0
4,Bambous Virieux,MU,2020-02-21 07:12:14,-20.34,57.76,84.2,58,20,11.41,few clouds,0.0,0.0
5,La Joya,MX,2020-02-21 07:12:15,18.67,-99.47,67.37,39,3,0.56,clear sky,0.0,0.0
6,Busselton,AU,2020-02-21 07:12:15,-33.65,115.33,93.0,11,97,14.07,overcast clouds,0.0,0.0
7,Chuy,UY,2020-02-21 07:12:15,-33.7,-53.46,58.26,68,0,11.99,clear sky,0.0,0.0
8,Norman Wells,CA,2020-02-21 07:12:15,65.28,-126.83,23.0,85,75,6.93,broken clouds,0.0,0.0
9,Bela,IN,2020-02-21 07:12:15,25.93,81.98,73.8,42,80,10.98,broken clouds,0.0,0.0
10,Terrasini,IT,2020-02-21 07:12:16,38.15,13.08,51.01,81,0,4.7,clear sky,0.0,0.0
11,Amahai,ID,2020-02-21 07:12:16,-3.33,128.92,83.95,69,65,7.16,broken clouds,0.0,0.0
12,Kahului,US,2020-02-21 07:10:53,20.89,-156.47,71.6,68,1,14.99,clear sky,0.0,0.0
13,Qaanaaq,GL,2020-02-21 07:12:17,77.48,-69.36,-14.93,53,0,5.01,clear sky,0.0,0.0
14,Mataura,NZ,2020-02-21 07:12:17,-46.19,168.86,57.99,79,73,17.0,light rain,0.12,0.0
15,Ushuaia,AR,2020-02-21 07:12:17,-54.8,-68.3,57.2,62,75,17.22,broken clouds,0.0,0.0
16,Cabra,ES,2020-02-21 07:12:17,37.47,-4.44,48.99,100,16,1.63,few clouds,0.0,0.0
17,Inhambane,MZ,2020-02-21 07:12:17,-23.86,35.38,87.8,62,40,6.85,scattered clouds,0.0,0.0
18,Haines Junction,CA,2020-02-21 07:12:18,60.75,-137.51,19.83,95,100,7.92,light snow,0.0,1.44
19,Alta Floresta,BR,2020-02-21 07:12:18,-9.88,-56.09,70.09,98,100,1.41,light rain,0.44,0.0
20,Margate,GB,2020-02-21 07:12:18,51.38,1.39,43.0,80,46,13.87,scattered clouds,0.0,0.0
21,East London,ZA,2020-02-21 07:12:18,-33.02,27.91,73.4,78,40,2.24,scattered clouds,0.0,0.0
22,Ahipara,NZ,2020-02-21 07:12:18,-35.17,173.17,73.99,87,83,15.99,broken clouds,0.0,0.0
23,Hobart,AU,2020-02-21 07:12:19,-42.88,147.33,63.0,41,20,18.34,few clouds,0.0,0.0
24,Tasiilaq,GL,2020-02-21 07:12:19,65.61,-37.64,19.4,73,100,1.12,overcast clouds,0.0,0.0
25,Kuytun,RU,2020-02-21 07:12:19,54.34,101.5,23.94,82,61,6.96,broken clouds,0.0,0.0
26,Alice Springs,AU,2020-02-21 07:08:33,-23.7,133.88,93.2,13,0,13.87,clear sky,0.0,0.0
27,Dubai,AE,2020-02-21 07:10:48,25.26,55.3,77.0,50,37,5.82,scattered clouds,0.0,0.0
28,Pangai,TO,2020-02-21 07:12:20,-19.8,-174.35,80.6,78,40,12.75,scattered clouds,0.0,0.0
29,Lebu,CL,2020-02-21 07:12:20,-37.62,-73.65,59.83,35,0,2.91,clear sky,0.0,0.0
30,Dikson,RU,2020-02-21 07:12:20,73.51,80.55,-5.53,88,6,19.42,clear sky,0.0,0.0
31,Victoria,HK,2020-02-21 07:10:00,22.29,114.16,78.01,47,0,12.75,clear sky,0.0,0.0
32,Kindersley,CA,2020-02-21 07:12:21,51.47,-109.17,17.01,85,5,5.82,clear sky,0.0,0.0
33,Amberley,US,2020-02-21 07:12:21,39.2,-84.43,21.2,78,1,4.7,clear sky,0.0,0.0
34,Mar Del Plata,AR,2020-02-21 07:12:21,-38.0,-57.56,59.0,67,75,13.87,broken clouds,0.0,0.0
35,Hasaki,JP,2020-02-21 07:12:21,35.73,140.83,57.0,54,20,10.29,few clouds,0.0,0.0
36,Morgan City,US,2020-02-21 07:12:21,29.7,-91.21,46.99,81,90,12.75,light rain,0.0,0.0
37,Castro,BR,2020-02-21 07:12:21,-24.79,-50.01,66.92,94,35,4.03,scattered clouds,0.0,0.0
38,Flinders,AU,2020-02-21 07:12:22,-34.58,150.86,73.99,68,90,12.75,overcast clouds,0.0,0.0
39,Wanning,CN,2020-02-21 07:12:22,18.8,110.4,74.95,71,52,11.83,light rain,1.06,0.0
40,Kaitangata,NZ,2020-02-21 07:12:22,-46.28,169.85,60.01,62,56,8.01,broken clouds,0.0,0.0
41,Harsud,IN,2020-02-21 07:12:22,22.1,76.73,88.93,19,0,3.09,clear sky,0.0,0.0
42,Erenhot,CN,2020-02-21 07:12:22,43.65,111.98,19.74,66,10,18.54,clear sky,0.0,0.0
43,Alofi,NU,2020-02-21 07:12:23,-19.06,-169.92,78.8,94,75,3.36,broken clouds,0.0,0.0
44,Phan Thiet,VN,2020-02-21 07:12:23,10.93,108.1,93.63,32,2,18.52,clear sky,0.0,0.0
45,Provideniya,RU,2020-02-21 07:12:23,64.38,-173.3,-0.4,70,0,6.71,heavy snow,0.0,0.0
46,Bubaque,GW,2020-02-21 07:12:24,11.28,-15.83,78.76,62,18,7.92,few clouds,0.0,0.0
47,Cayenne,GF,2020-02-21 07:12:24,4.93,-52.33,77.0,78,87,2.24,overcast clouds,0.0,0.0
48,Saldanha,ZA,2020-02-21 07:12:24,-33.01,17.94,68.0,88,0,11.41,clear sky,0.0,0.0
49,Avarua,CK,2020-02-21 07:12:24,-21.21,-159.78,82.4,88,100,10.29,light rain,0.37,0.0
50,Bud,US,2020-02-21 07:12:25,39.45,-86.18,19.99,73,1,5.82,clear sky,0.0,0.0
51,Torbay,CA,2020-02-21 07:12:25,47.67,-52.73,10.99,60,20,21.92,few clouds,0.0,0.0
52,Longyearbyen,SJ,2020-02-21 07:12:26,78.22,15.64,3.2,77,40,3.36,light snow,0.0,0.0
53,Butaritari,KI,2020-02-21 07:12:26,3.07,172.79,83.97,78,77,13.67,light rain,0.88,0.0
54,Jalu,LY,2020-02-21 07:12:26,29.03,21.55,57.36,61,62,10.49,broken clouds,0.0,0.0
55,Bac Lieu,VN,2020-02-21 07:12:27,9.29,105.72,95.7,32,39,17.58,scattered clouds,0.0,0.0
56,Mount Gambier,AU,2020-02-21 07:07:39,-37.83,140.77,68.0,52,40,12.75,scattered clouds,0.0,0.0
57,Charleville-Mezieres,FR,2020-02-21 07:12:27,49.77,4.72,36.0,94,75,9.17,broken clouds,0.0,0.0
58,Rikitea,PF,2020-02-21 07:12:28,-23.12,-134.97,78.49,75,42,13.85,scattered clouds,0.0,0.0
59,Vaini,TO,2020-02-21 07:12:29,-21.2,-175.2,78.8,74,20,8.05,few clouds,0.0,0.0
60,Albany,US,2020-02-21 07:12:14,42.6,-73.97,18.0,85,1,3.36,clear sky,0.0,0.0
61,Jamestown,US,2020-02-21 07:12:29,42.1,-79.24,21.2,72,90,6.93,light snow,0.0,0.0
62,Ust-Omchug,RU,2020-02-21 07:12:30,61.15,149.63,-17.97,96,77,2.51,broken clouds,0.0,0.0
63,Laguna,US,2020-02-21 07:12:30,38.42,-121.42,54.0,62,1,4.7,clear sky,0.0,0.0
64,Cape Town,ZA,2020-02-21 07:09:25,-33.93,18.42,72.0,88,20,12.75,few clouds,0.0,0.0
65,Pisco,PE,2020-02-21 07:12:31,-13.7,-76.22,73.4,83,100,4.7,overcast clouds,0.0,0.0
66,Atuona,PF,2020-02-21 07:12:31,-9.8,-139.03,81.55,78,82,17.29,broken clouds,0.0,0.0
67,Aleksandrov Gay,RU,2020-02-21 07:10:22,50.15,48.57,29.32,87,12,9.06,few clouds,0.0,0.0
68,Saint-Philippe,RE,2020-02-21 07:12:31,-21.36,55.77,84.2,65,20,24.16,few clouds,0.0,0.0
69,Portland,US,2020-02-21 07:09:17,45.52,-122.68,45.0,56,1,3.31,clear sky,0.0,0.0
70,Henties Bay,NA,2020-02-21 07:12:32,-22.12,14.28,64.99,95,89,4.23,overcast clouds,0.0,0.0
71,Fort Nelson,CA,2020-02-21 07:12:32,58.81,-122.7,26.6,68,5,3.36,clear sky,0.0,0.0
72,Carnarvon,AU,2020-02-21 07:12:32,-24.87,113.63,87.8,62,100,20.8,light rain,2.06,0.0
73,Waipawa,NZ,2020-02-21 07:12:33,-41.41,175.52,71.6,78,92,25.28,overcast clouds,0.0,0.0
74,Rio Gallegos,AR,2020-02-21 07:12:33,-51.62,-69.22,55.4,62,40,10.29,scattered clouds,0.0,0.0
75,Sitka,US,2020-02-21 07:12:33,57.05,-135.33,39.2,86,90,12.75,overcast clouds,0.0,0.0
76,Sao Jose Da Coroa Grande,BR,2020-02-21 07:12:34,-8.9,-35.15,81.48,76,100,6.96,light rain,0.25,0.0
77,Tuktoyaktuk,CA,2020-02-21 07:12:34,69.45,-133.04,1.4,77,90,4.7,light snow,0.0,0.0
78,Port Alfred,ZA,2020-02-21 07:12:34,-33.59,26.89,73.99,81,81,3.49,broken clouds,0.0,0.0
79,Punta Arenas,CL,2020-02-21 07:10:06,-53.15,-70.92,53.6,76,75,23.04,broken clouds,0.0,0.0
80,Hobyo,SO,2020-02-21 07:12:35,5.35,48.53,84.92,62,79,16.64,broken clouds,0.0,0.0
81,Gat,IL,2020-02-21 07:12:35,31.61,34.76,62.01,67,75,6.93,broken clouds,0.0,0.0
82,Vilhena,BR,2020-02-21 07:12:35,-12.74,-60.15,70.11,99,100,2.26,moderate rain,3.56,0.0
83,Lompoc,US,2020-02-21 07:12:35,34.64,-120.46,51.01,81,1,5.82,clear sky,0.0,0.0
84,Chicama,PE,2020-02-21 07:12:36,-7.84,-79.15,73.4,83,90,5.82,overcast clouds,0.0,0.0
85,Bulgan,MN,2020-02-21 07:12:36,48.81,103.53,14.83,63,0,4.88,clear sky,0.0,0.0
86,Saskylakh,RU,2020-02-21 07:12:36,71.92,114.08,-12.41,98,89,2.57,overcast clouds,0.0,0.0
87,Lida,BY,2020-02-21 07:12:36,53.88,25.3,32.47,78,42,11.88,scattered clouds,0.0,0.0
88,Matagami,CA,2020-02-21 07:12:37,49.75,-77.63,3.2,84,1,9.17,clear sky,0.0,0.0
89,Hilo,US,2020-02-21 07:12:37,19.73,-155.09,69.8,77,1,10.0,clear sky,0.0,0.0
90,Sur,OM,2020-02-21 07:12:37,22.57,59.53,78.85,33,100,10.4,overcast clouds,0.0,0.0
91,Beringovskiy,RU,2020-02-21 07:12:37,63.05,179.32,-15.65,86,0,2.8,clear sky,0.0,0.0
92,Khatanga,RU,2020-02-21 07:12:38,71.97,102.5,6.55,95,100,10.54,light snow,0.0,0.13
93,Mahebourg,MU,2020-02-21 07:12:38,-20.41,57.7,84.2,58,20,11.41,few clouds,0.0,0.0
94,Bluff,NZ,2020-02-21 07:12:38,-46.6,168.33,57.99,79,60,17.0,broken clouds,0.0,0.0
95,Yellowknife,CA,2020-02-21 07:12:38,62.46,-114.35,21.0,79,5,6.93,clear sky,0.0,0.0
96,Cherskiy,RU,2020-02-21 07:12:39,68.75,161.3,-15.81,98,96,3.94,overcast clouds,0.0,0.0
97,Chokurdakh,RU,2020-02-21 07:12:39,70.63,147.92,-14.21,97,87,1.52,overcast clouds,0.0,0.0
98,Palaikastron,GR,2020-02-21 07:12:39,35.2,26.25,55.99,59,69,27.0,light rain,1.06,0.0
99,Praia Da Vitoria,PT,2020-02-21 07:12:40,38.73,-27.07,50.0,76,20,7.2,few clouds,0.0,0.0
100,Bredasdorp,ZA,2020-02-21 07:12:40,-34.53,20.04,73.4,60,0,3.69,clear sky,0.0,0.0
101,Itoman,JP,2020-02-21 07:12:40,26.12,127.67,71.6,60,40,14.99,scattered clouds,0.0,0.0
102,Emerald,AU,2020-02-21 07:11:03,-23.53,148.17,88.0,62,62,17.22,broken clouds,0.0,0.0
103,San Cristobal,VE,2020-02-21 07:12:41,7.77,-72.22,53.71,94,92,1.05,light rain,0.38,0.0
104,Kapaa,US,2020-02-21 07:12:41,22.08,-159.32,71.6,73,40,3.36,scattered clouds,0.0,0.0
105,San Patricio,MX,2020-02-21 07:12:42,19.22,-104.7,76.26,80,0,4.74,clear sky,0.0,0.0
106,Urucara,BR,2020-02-21 07:12:42,-2.54,-57.76,74.75,98,97,2.19,overcast clouds,0.0,0.0
107,Karratha,AU,2020-02-21 07:12:42,-20.74,116.85,82.33,84,50,12.21,scattered clouds,0.0,0.0
108,Kavaratti,IN,2020-02-21 07:12:43,10.57,72.64,87.8,66,20,4.7,few clouds,0.0,0.0
109,Swan Hill,AU,2020-02-21 07:12:43,-35.34,143.55,80.6,23,0,13.04,clear sky,0.0,0.0
110,New Norfolk,AU,2020-02-21 07:12:43,-42.78,147.06,63.0,41,20,18.34,few clouds,0.0,0.0
111,Sukhobezvodnoye,RU,2020-02-21 07:12:43,57.05,44.89,33.51,95,100,5.08,overcast clouds,0.0,0.0
112,Maceio,BR,2020-02-21 07:10:10,-9.67,-35.74,73.4,94,40,4.7,scattered clouds,0.0,0.0
113,Doha,QA,2020-02-21 07:12:44,25.29,51.53,77.0,60,12,11.41,few clouds,0.0,0.0
114,Kiruna,SE,2020-02-21 07:12:44,67.86,20.23,28.4,86,100,17.22,overcast clouds,0.0,0.0
115,Katsuura,JP,2020-02-21 07:12:45,35.13,140.3,55.99,47,20,9.17,few clouds,0.0,0.0
116,Stornoway,GB,2020-02-21 07:12:45,58.21,-6.39,48.99,87,75,36.91,light intensity drizzle rain,0.0,0.0
117,Puerto Ayora,EC,2020-02-21 07:12:45,-0.74,-90.35,77.74,88,77,8.5,light rain,1.37,0.0
118,Upernavik,GL,2020-02-21 07:12:46,72.79,-56.15,-17.86,99,95,0.78,overcast clouds,0.0,0.0
119,Narathiwat,TH,2020-02-21 07:12:46,6.33,101.75,86.0,70,40,12.75,scattered clouds,0.0,0.0
120,Pimentel,PE,2020-02-21 07:12:46,-6.84,-79.93,66.2,29,75,6.93,broken clouds,0.0,0.0
121,Airai,TL,2020-02-21 07:12:47,-8.93,125.41,74.8,87,100,2.89,moderate rain,6.62,0.0
122,Churapcha,RU,2020-02-21 07:12:47,62.0,132.43,-3.91,95,100,8.48,overcast clouds,0.0,0.0
123,Zabaykalsk,RU,2020-02-21 07:09:03,49.63,117.32,13.64,91,100,11.21,light snow,0.0,0.25
124,Bengkulu,ID,2020-02-21 07:07:50,-3.8,102.27,92.57,46,42,2.24,scattered clouds,0.0,0.0
125,Ilo,PE,2020-02-21 07:12:48,-17.64,-71.34,72.23,88,98,0.63,overcast clouds,0.0,0.0
126,Ponta Do Sol,PT,2020-02-21 07:12:49,32.67,-17.1,57.2,71,40,11.41,scattered clouds,0.0,0.0
127,Hermanus,ZA,2020-02-21 07:11:13,-34.42,19.23,66.0,83,0,1.99,clear sky,0.0,0.0
128,Port-Gentil,GA,2020-02-21 07:12:50,-0.72,8.78,84.2,83,40,9.17,scattered clouds,0.0,0.0
129,Honiara,SB,2020-02-21 07:12:50,-9.43,159.95,80.6,88,75,2.24,broken clouds,0.0,0.0
130,Nayoro,JP,2020-02-21 07:12:50,44.35,142.46,20.71,90,100,9.69,light snow,0.0,0.38
131,Ayolas,PY,2020-02-21 07:12:50,-27.4,-56.9,65.97,45,42,11.48,scattered clouds,0.0,0.0
132,Muscatine,US,2020-02-21 07:12:51,41.47,-91.13,14.0,85,1,5.03,haze,0.0,0.0
133,Saint-Francois,FR,2020-02-21 07:12:51,46.42,3.91,39.99,91,75,2.24,broken clouds,0.0,0.0
134,Kewanee,US,2020-02-21 07:12:51,41.25,-89.92,15.01,85,1,2.98,clear sky,0.0,0.0
135,Cabo San Lucas,MX,2020-02-21 07:09:43,22.89,-109.91,71.01,56,0,6.82,clear sky,0.0,0.0
136,Lockport,US,2020-02-21 07:12:52,41.59,-88.06,15.01,78,1,4.7,clear sky,0.0,0.0
137,Vieques,PR,2020-02-21 07:12:52,18.43,-65.83,75.2,73,20,3.36,few clouds,0.0,0.0
138,Itarema,BR,2020-02-21 07:12:53,-2.92,-39.92,75.47,94,100,3.11,overcast clouds,0.0,0.0
139,Warman,CA,2020-02-21 07:12:53,52.32,-106.57,19.0,84,5,6.93,clear sky,0.0,0.0
140,Bonthe,SL,2020-02-21 07:12:53,7.53,-12.51,76.68,90,39,4.9,scattered clouds,0.0,0.0
141,Vanimo,PG,2020-02-21 07:12:54,-2.67,141.3,82.31,81,96,16.04,overcast clouds,0.0,0.0
142,Opuwo,NA,2020-02-21 07:12:54,-18.06,13.84,72.16,33,100,0.89,overcast clouds,0.0,0.0
143,Mitu,CO,2020-02-21 07:12:54,1.2,-70.17,72.21,97,89,1.01,overcast clouds,0.0,0.0
144,Nanortalik,GL,2020-02-21 07:12:54,60.14,-45.24,26.49,69,100,1.95,overcast clouds,0.0,0.0
145,Wufeng,CN,2020-02-21 07:12:55,27.45,104.83,48.34,59,86,2.19,overcast clouds,0.0,0.0
146,Narsaq,GL,2020-02-21 07:12:55,60.92,-46.05,30.2,28,100,11.41,overcast clouds,0.0,0.0
147,Magan,ES,2020-02-21 07:12:55,39.97,-3.93,46.0,60,0,3.36,clear sky,0.0,0.0
148,Cabo Rojo,PR,2020-02-21 07:12:55,18.09,-67.15,75.99,75,0,5.99,clear sky,0.0,0.0
149,Tessalit,ML,2020-02-21 07:12:55,20.2,1.01,65.86,15,99,11.18,overcast clouds,0.0,0.0
150,Udachnyy,RU,2020-02-21 07:12:56,66.42,112.4,3.2,84,59,6.71,broken clouds,0.0,0.0
151,Salinopolis,BR,2020-02-21 07:12:56,-0.61,-47.36,76.89,84,100,5.44,overcast clouds,0.0,0.0
152,Severo-Kurilsk,RU,2020-02-21 07:12:56,50.68,156.12,17.06,93,100,5.46,light snow,0.0,1.31
153,Khuzhir,RU,2020-02-21 07:12:57,53.19,107.34,20.64,88,17,13.18,few clouds,0.0,0.0
154,Nikolskoye,RU,2020-02-21 07:12:57,59.7,30.79,36.0,86,20,8.95,few clouds,0.0,0.0
155,Yar-Sale,RU,2020-02-21 07:12:57,66.83,70.83,12.9,90,94,17.11,overcast clouds,0.0,0.0
156,Saint-Augustin,CA,2020-02-21 07:12:57,51.23,-58.65,-11.36,82,0,18.63,clear sky,0.0,0.0
157,Bokoro,TD,2020-02-21 07:12:58,12.38,17.06,69.28,21,0,10.78,clear sky,0.0,0.0
158,Tacoma,US,2020-02-21 07:12:51,47.25,-122.44,43.0,86,1,1.72,clear sky,0.0,0.0
159,Eirunepe,BR,2020-02-21 07:12:58,-6.66,-69.87,73.31,97,77,1.68,broken clouds,0.0,0.0
160,Kamenka,RU,2020-02-21 07:12:59,51.32,42.77,35.01,86,96,3.58,overcast clouds,0.0,0.0
161,Beruwala,LK,2020-02-21 07:12:59,6.48,79.98,88.12,61,36,5.64,scattered clouds,0.0,0.0
162,Saint-Georges,GD,2020-02-21 07:12:59,12.06,-61.75,77.0,78,20,13.87,few clouds,0.0,0.0
163,Hervey Bay,AU,2020-02-21 07:12:59,-25.3,152.85,86.0,58,40,16.11,scattered clouds,0.0,0.0
164,Libourne,FR,2020-02-21 07:13:00,44.92,-0.25,46.99,87,20,2.24,few clouds,0.0,0.0
165,Lugovoy,KZ,2020-02-21 07:13:00,42.95,72.76,42.22,74,72,4.54,broken clouds,0.0,0.0
166,Coquimbo,CL,2020-02-21 07:13:00,-29.95,-71.34,60.8,87,90,3.36,overcast clouds,0.0,0.0
167,Xai-Xai,MZ,2020-02-21 07:13:00,-25.05,33.64,83.12,68,75,1.36,broken clouds,0.0,0.0
168,Thompson,CA,2020-02-21 07:13:01,55.74,-97.86,23.0,73,20,9.17,few clouds,0.0,0.0
169,Grindavik,IS,2020-02-21 07:13:01,63.84,-22.43,32.0,57,100,21.92,light snow,0.0,0.44
170,Progreso,MX,2020-02-21 07:13:01,21.28,-89.67,77.0,83,40,4.7,scattered clouds,0.0,0.0
171,Arraial Do Cabo,BR,2020-02-21 07:13:01,-22.97,-42.03,76.32,92,1,13.42,clear sky,0.0,0.0
172,Shingu,JP,2020-02-21 07:13:02,33.73,135.98,55.4,58,20,9.17,few clouds,0.0,0.0
173,Ancud,CL,2020-02-21 07:13:02,-41.87,-73.82,51.8,71,0,9.17,clear sky,0.0,0.0
174,Vardo,NO,2020-02-21 07:13:02,70.37,31.11,24.8,85,75,28.86,light snow,0.0,0.0
175,Clyde River,CA,2020-02-21 07:13:03,70.47,-68.59,-11.2,76,90,10.29,light snow,0.0,0.0
176,Wattegama,LK,2020-02-21 07:13:03,6.8,81.48,89.6,66,40,16.11,scattered clouds,0.0,0.0
177,Hofn,IS,2020-02-21 07:13:03,64.25,-15.21,37.56,77,83,32.79,broken clouds,0.0,0.0
178,Lazaro Cardenas,MX,2020-02-21 07:13:03,17.96,-102.2,72.61,81,0,1.92,clear sky,0.0,0.0
179,Isangel,VU,2020-02-21 07:13:04,-19.55,169.27,86.0,70,75,13.33,broken clouds,0.0,0.0
180,Phalaborwa,ZA,2020-02-21 07:13:04,-23.94,31.14,75.69,89,99,6.87,light rain,0.31,0.0
181,Hargeysa,SO,2020-02-21 07:13:04,9.56,44.06,70.03,48,73,11.45,broken clouds,0.0,0.0
182,Aklavik,CA,2020-02-21 07:13:04,68.22,-135.01,6.8,84,90,5.82,light snow,0.0,0.0
183,Faanui,PF,2020-02-21 07:13:05,-16.48,-151.75,82.78,77,88,16.96,light rain,0.31,0.0
184,Port Hardy,CA,2020-02-21 07:13:05,50.7,-127.42,37.4,86,75,4.7,broken clouds,0.0,0.0
185,La Rioja,ES,2020-02-21 07:13:05,42.25,-2.5,35.6,93,30,9.17,scattered clouds,0.0,0.0
186,Faya,SA,2020-02-21 07:13:06,18.39,42.45,68.0,42,0,11.41,clear sky,0.0,0.0
187,Tiksi,RU,2020-02-21 07:13:06,71.69,128.87,-0.8,86,100,12.03,overcast clouds,0.0,0.0
188,Ostrovnoy,RU,2020-02-21 07:13:06,68.05,39.51,20.3,80,88,33.53,overcast clouds,0.0,0.0
189,Plettenberg Bay,ZA,2020-02-21 07:09:00,-34.05,23.37,67.33,83,21,3.58,few clouds,0.0,0.0
190,Wamba,NG,2020-02-21 07:13:07,8.93,8.6,71.56,24,0,3.38,clear sky,0.0,0.0
191,Richards Bay,ZA,2020-02-21 07:13:07,-28.78,32.04,78.87,84,19,19.66,light rain,1.44,0.0
192,Taybad,IR,2020-02-21 07:13:08,34.74,60.78,57.11,29,87,28.05,overcast clouds,0.0,0.0
193,Rudnichnyy,RU,2020-02-21 07:13:08,59.62,52.47,29.61,97,93,3.96,light snow,0.0,0.25
194,Zhetysay,KZ,2020-02-21 07:13:08,40.73,68.3,54.54,31,100,17.56,overcast clouds,0.0,0.0
195,Naruto,JP,2020-02-21 07:13:08,34.18,134.62,55.4,47,40,10.29,scattered clouds,0.0,0.0
196,Samfya,ZM,2020-02-21 07:13:09,-11.36,29.56,70.02,89,100,2.68,overcast clouds,0.0,0.0
197,Kununurra,AU,2020-02-21 07:13:09,-15.77,128.73,100.4,35,76,8.05,broken clouds,0.0,0.0
198,Emba,KZ,2020-02-21 07:13:10,48.83,58.14,20.53,86,99,7.7,overcast clouds,0.0,0.0
199,Asau,RO,2020-02-21 07:13:11,46.43,26.4,36.0,81,20,2.06,few clouds,0.0,0.0
200,Shahreza,IR,2020-02-21 07:13:11,32.03,51.88,40.87,59,0,1.7,clear sky,0.0,0.0
201,Kondinskoye,RU,2020-02-21 07:13:11,59.65,67.41,27.01,95,89,7.87,overcast clouds,0.0,0.0
202,Muroto,JP,2020-02-21 07:13:12,33.28,134.15,57.2,50,20,6.93,few clouds,0.0,0.0
203,Klaksvik,FO,2020-02-21 07:13:12,62.23,-6.59,41.0,86,83,27.51,light rain,0.0,0.0
204,Mpongwe,ZM,2020-02-21 07:13:13,-13.51,28.16,69.87,90,95,1.79,overcast clouds,0.0,0.0
205,Norrtalje,SE,2020-02-21 07:13:13,59.76,18.7,43.0,80,75,19.46,broken clouds,0.0,0.0
206,Namatanai,PG,2020-02-21 07:13:13,-3.67,152.43,84.18,74,0,13.91,light rain,0.38,0.0
207,Jambi,ID,2020-02-21 07:13:14,-1.6,103.62,83.19,82,65,5.82,moderate rain,3.44,0.0
208,Nizhnyaya Omka,RU,2020-02-21 07:13:14,55.43,74.94,24.06,95,100,7.63,overcast clouds,0.0,0.0
209,Tilichiki,RU,2020-02-21 07:13:14,60.47,166.1,-10.82,81,96,5.93,overcast clouds,0.0,0.0
210,Gaogou,CN,2020-02-21 07:13:15,34.02,119.19,54.3,62,97,10.27,overcast clouds,0.0,0.0
211,Srednekolymsk,RU,2020-02-21 07:13:15,67.45,153.68,-15.16,97,93,3.8,overcast clouds,0.0,0.0
212,Madang,PG,2020-02-21 07:13:15,-5.22,145.8,83.17,78,20,18.68,few clouds,0.0,0.0
213,Manaure,CO,2020-02-21 07:13:15,11.78,-72.44,77.07,84,99,13.6,overcast clouds,0.0,0.0
214,Bandar-E Lengeh,IR,2020-02-21 07:13:16,26.56,54.88,73.4,64,0,9.17,clear sky,0.0,0.0
215,Eyl,SO,2020-02-21 07:13:16,7.98,49.82,78.51,75,74,16.17,broken clouds,0.0,0.0
216,Pevek,RU,2020-02-21 07:13:16,69.7,170.31,-9.87,99,100,8.9,light snow,0.0,0.25
217,Santa Cruz,BO,2020-02-21 07:10:42,-17.8,-63.17,77.0,88,75,13.87,broken clouds,0.0,0.0
218,Bethel,US,2020-02-21 07:13:17,41.37,-73.41,24.01,48,1,8.05,clear sky,0.0,0.0
219,Southampton,GB,2020-02-21 07:13:17,50.9,-1.4,45.0,81,45,4.7,scattered clouds,0.0,0.0
220,Samarai,PG,2020-02-21 07:13:18,-10.62,150.67,83.25,81,98,1.5,moderate rain,4.44,0.0
221,Kenai,US,2020-02-21 07:13:18,60.55,-151.26,27.0,92,75,2.82,mist,0.0,0.0
222,Ribeira Grande,PT,2020-02-21 07:13:18,38.52,-28.7,52.12,77,56,9.48,broken clouds,0.0,0.0
223,San Juan,AR,2020-02-21 07:13:18,-31.54,-68.54,68.5,21,0,13.62,clear sky,0.0,0.0
224,Abay,KZ,2020-02-21 07:13:19,49.63,72.85,32.0,77,100,4.47,overcast clouds,0.0,0.0
225,Jacareacanga,BR,2020-02-21 07:13:19,-6.22,-57.75,71.96,97,100,1.92,overcast clouds,0.0,0.0
226,Ust-Ishim,RU,2020-02-21 07:13:19,57.69,71.17,31.5,95,99,7.09,overcast clouds,0.0,0.0
227,Kapit,MY,2020-02-21 07:13:19,2.02,112.93,91.17,49,92,3.51,overcast clouds,0.0,0.0
228,Khani,GE,2020-02-21 07:13:20,41.96,42.96,44.6,81,40,4.7,scattered clouds,0.0,0.0
229,Port Elizabeth,ZA,2020-02-21 07:10:03,-33.92,25.57,69.8,83,75,5.82,broken clouds,0.0,0.0
230,Zurrieq,MT,2020-02-21 07:13:20,35.83,14.47,55.99,76,20,6.93,few clouds,0.0,0.0
231,Souillac,MU,2020-02-21 07:13:21,-20.52,57.52,84.2,58,20,11.41,few clouds,0.0,0.0
232,Yubari,JP,2020-02-21 07:13:21,43.04,141.96,35.01,59,75,8.05,broken clouds,0.0,0.0
233,Pangnirtung,CA,2020-02-21 07:11:06,66.15,-65.71,-38.07,98,71,1.34,broken clouds,0.0,0.0
234,Goulburn,AU,2020-02-21 07:13:22,-34.75,149.72,81.0,30,83,12.01,light rain,0.13,0.0
235,Teya,RU,2020-02-21 07:13:22,60.38,92.63,23.47,90,95,4.83,light snow,0.0,0.13
236,Leningradskiy,RU,2020-02-21 07:13:22,69.38,178.42,-7.22,93,100,21.36,light snow,0.0,0.19
237,Codrington,AU,2020-02-21 07:13:23,-38.27,141.97,58.37,68,28,13.96,scattered clouds,0.0,0.0
238,Tekkali,IN,2020-02-21 07:13:23,18.62,84.23,85.39,34,0,7.74,clear sky,0.0,0.0
239,Kuusamo,FI,2020-02-21 07:13:23,65.97,29.18,24.8,92,90,19.46,light shower snow,0.0,0.0
240,Matara,LK,2020-02-21 07:13:23,5.95,80.54,91.38,51,37,13.0,scattered clouds,0.0,0.0
241,Ibra,OM,2020-02-21 07:13:24,22.69,58.53,73.89,38,100,3.36,overcast clouds,0.0,0.0
242,Esperance,AU,2020-02-21 07:13:24,-33.87,121.9,80.6,32,0,11.41,clear sky,0.0,0.0
243,Sorland,NO,2020-02-21 07:13:24,67.67,12.69,39.2,86,40,21.92,shower rain,0.0,0.0
244,Gayny,RU,2020-02-21 07:13:24,60.31,54.32,28.74,93,99,5.53,light snow,0.0,0.38
245,Northam,GB,2020-02-21 07:13:25,51.03,-4.22,48.0,81,40,10.29,scattered clouds,0.0,0.0
246,Minab,IR,2020-02-21 07:13:25,27.15,57.08,77.0,69,75,4.7,broken clouds,0.0,0.0
247,Leshukonskoye,RU,2020-02-21 07:13:26,64.9,45.76,8.38,95,60,7.14,broken clouds,0.0,0.0
248,Impfondo,CG,2020-02-21 07:13:26,1.64,18.07,79.77,59,65,1.7,broken clouds,0.0,0.0
249,Kavieng,PG,2020-02-21 07:13:26,-2.57,150.8,83.86,76,0,13.29,light rain,1.06,0.0
250,Caimito,CO,2020-02-21 07:13:26,8.81,-75.41,78.19,83,57,7.11,broken clouds,0.0,0.0
251,Qaqortoq,GL,2020-02-21 07:13:27,60.72,-46.03,30.2,28,100,11.41,overcast clouds,0.0,0.0
252,Manggar,ID,2020-02-21 07:13:27,-2.88,108.27,82.4,78,98,16.08,light rain,2.06,0.0
253,Sinegorye,RU,2020-02-21 07:13:28,62.08,150.48,-16.82,91,0,2.15,clear sky,0.0,0.0
254,Broome,US,2020-02-21 07:13:28,42.25,-75.83,14.0,92,90,2.86,light snow,0.0,0.0
255,Vikhorevka,RU,2020-02-21 07:13:28,56.12,101.16,28.0,73,40,11.18,light shower snow,0.0,0.0
256,Geraldton,AU,2020-02-21 07:13:28,-28.77,114.6,80.6,65,92,9.17,overcast clouds,0.0,0.0
257,Madison,US,2020-02-21 07:13:29,34.73,-86.57,34.0,88,1,16.11,clear sky,0.0,0.0
258,Constitucion,CL,2020-02-21 07:13:29,-35.33,-72.42,53.94,74,0,6.2,clear sky,0.0,0.0
259,Lewiston,US,2020-02-21 07:13:29,44.1,-70.21,12.2,60,1,5.44,clear sky,0.0,0.0
260,Saint-Pierre,RE,2020-02-21 07:13:30,-21.34,55.48,84.2,65,20,24.16,few clouds,0.0,0.0
261,Mocuba,MZ,2020-02-21 07:13:30,-16.84,36.99,80.31,86,17,1.74,few clouds,0.0,0.0
262,Xining,CN,2020-02-21 07:13:30,36.62,101.77,32.92,25,0,3.27,clear sky,0.0,0.0
263,Port Blair,IN,2020-02-21 07:13:30,11.67,92.75,81.75,74,27,16.13,scattered clouds,0.0,0.0
264,Terra Santa,BR,2020-02-21 07:11:05,-2.1,-56.49,72.84,96,100,2.53,overcast clouds,0.0,0.0
265,Pemberton,CA,2020-02-21 07:09:26,50.32,-122.8,17.67,79,29,2.73,scattered clouds,0.0,0.0
266,Rio Claro,BR,2020-02-21 07:13:31,-22.41,-47.56,70.68,95,100,2.82,moderate rain,4.06,0.0
267,Waw,SS,2020-02-21 07:13:31,7.7,28.0,76.57,20,49,7.47,scattered clouds,0.0,0.0
268,Barrow,US,2020-02-21 07:13:31,71.29,-156.79,-16.6,75,20,9.17,haze,0.0,0.0
269,San Quintin,MX,2020-02-21 07:13:32,30.48,-115.95,64.2,64,100,3.76,overcast clouds,0.0,0.0
270,Innisfail,AU,2020-02-21 07:13:33,-17.53,146.03,78.01,83,52,3.0,light rain,1.13,0.0
271,Cidreira,BR,2020-02-21 07:13:33,-30.18,-50.21,69.76,70,96,19.64,light rain,0.19,0.0
272,Boffa,GN,2020-02-21 07:13:34,10.17,-14.03,70.41,92,3,3.18,clear sky,0.0,0.0
273,Ixtapa,MX,2020-02-21 07:13:34,20.7,-105.2,73.0,94,5,4.7,clear sky,0.0,0.0
274,Evensk,RU,2020-02-21 07:13:34,61.95,159.23,-16.06,76,7,1.23,clear sky,0.0,0.0
275,Nome,US,2020-02-21 07:13:35,64.5,-165.41,6.8,65,90,14.99,overcast clouds,0.0,0.0
276,Nyurba,RU,2020-02-21 07:13:35,63.28,118.33,12.99,94,98,5.28,overcast clouds,0.0,0.0
277,Hammerfest,NO,2020-02-21 07:13:35,70.66,23.68,30.2,74,75,24.16,broken clouds,0.0,0.0
278,Koumac,NC,2020-02-21 07:13:35,-20.57,164.28,76.05,83,96,1.05,light rain,0.25,0.0
279,Mehamn,NO,2020-02-21 07:13:36,71.04,27.85,28.4,92,90,16.11,light shower snow,0.0,0.0
280,Bollnas,SE,2020-02-21 07:13:36,61.35,16.39,37.0,98,100,1.01,light rain,0.81,0.0
281,Aksha,RU,2020-02-21 07:13:36,50.28,113.29,19.27,71,100,9.8,overcast clouds,0.0,0.0
282,Port Lincoln,AU,2020-02-21 07:13:36,-34.73,135.87,66.47,57,85,14.05,overcast clouds,0.0,0.0
283,Ust-Kuyga,RU,2020-02-21 07:13:37,70.02,135.6,-6.88,95,100,6.31,overcast clouds,0.0,0.0
284,Vikevag,NO,2020-02-21 07:13:37,59.1,5.7,44.6,70,75,19.46,broken clouds,0.0,0.0
285,Elliot Lake,CA,2020-02-21 07:13:37,46.38,-82.63,15.8,78,1,13.87,clear sky,0.0,0.0
286,Olafsvik,IS,2020-02-21 07:13:37,64.89,-23.71,33.76,80,100,38.05,overcast clouds,0.0,0.0
287,Iskateley,RU,2020-02-21 07:13:38,67.68,53.15,7.11,88,46,12.44,scattered clouds,0.0,0.0
288,Erbaa,TR,2020-02-21 07:13:38,40.67,36.57,44.6,76,100,3.36,overcast clouds,0.0,0.0
289,Los Llanos De Aridane,ES,2020-02-21 07:13:38,28.66,-17.92,62.6,67,20,6.93,few clouds,0.0,0.0
290,Mozarlandia,BR,2020-02-21 07:11:05,-14.74,-50.57,71.91,95,100,5.68,overcast clouds,0.0,0.0
291,Cururupu,BR,2020-02-21 07:13:38,-1.83,-44.87,71.71,99,100,2.89,light rain,0.19,0.0
292,Komsomolskiy,UZ,2020-02-21 07:13:39,40.43,71.72,48.2,45,0,4.12,clear sky,0.0,0.0
293,Alto Araguaia,BR,2020-02-21 07:13:39,-17.31,-53.22,69.58,96,100,2.57,light rain,2.63,0.0
294,Makinsk,KZ,2020-02-21 07:13:39,52.63,70.42,17.17,88,93,6.2,overcast clouds,0.0,0.0
295,Januaria,BR,2020-02-21 07:13:39,-15.48,-44.37,67.87,93,93,2.42,overcast clouds,0.0,0.0
296,Iberia,US,2020-02-21 07:13:40,29.95,-91.75,46.4,70,90,13.87,overcast clouds,0.0,0.0
297,Touros,BR,2020-02-21 07:13:40,-5.2,-35.46,75.2,94,40,4.7,scattered clouds,0.0,0.0
298,Goundam,ML,2020-02-21 07:13:40,16.41,-3.67,69.57,15,11,10.18,few clouds,0.0,0.0
299,Ratnagiri,IN,2020-02-21 07:13:41,16.98,73.3,97.54,19,55,3.96,broken clouds,0.0,0.0
300,Parana,AR,2020-02-21 07:13:41,-31.73,-60.52,64.99,59,7,4.0,clear sky,0.0,0.0
301,Sao Filipe,CV,2020-02-21 07:13:41,14.9,-24.5,68.27,83,2,17.16,clear sky,0.0,0.0
302,Umm Lajj,SA,2020-02-21 07:13:42,25.02,37.27,67.82,25,0,4.83,clear sky,0.0,0.0
303,Mastic Beach,US,2020-02-21 07:13:42,40.77,-72.85,24.01,41,1,10.29,clear sky,0.0,0.0
304,Naze,JP,2020-02-21 07:13:42,28.37,129.48,69.8,52,20,8.05,few clouds,0.0,0.0
305,Barentu,ER,2020-02-21 07:13:43,15.11,37.59,72.9,38,83,1.54,broken clouds,0.0,0.0
306,Fortuna,US,2020-02-21 07:13:43,40.6,-124.16,43.0,100,1,9.17,clear sky,0.0,0.0
307,Lezhe,AL,2020-02-21 07:13:43,41.78,19.64,35.6,74,0,2.24,clear sky,0.0,0.0
308,Carballo,ES,2020-02-21 07:13:43,43.21,-8.69,50.0,100,20,4.5,fog,0.0,0.0
309,Yatou,CN,2020-02-21 07:13:43,37.15,122.38,48.0,58,100,13.69,overcast clouds,0.0,0.0
310,Sapele,NG,2020-02-21 07:13:44,5.89,5.68,76.89,96,66,2.84,broken clouds,0.0,0.0
311,Gevrai,IN,2020-02-21 07:13:44,19.27,75.75,88.14,26,1,9.75,clear sky,0.0,0.0
312,Shimoda,JP,2020-02-21 07:13:44,34.67,138.95,55.4,54,20,2.24,few clouds,0.0,0.0
313,Kilifi,KE,2020-02-21 07:12:03,-3.63,39.85,86.0,79,40,6.93,scattered clouds,0.0,0.0
314,Garowe,SO,2020-02-21 07:13:44,8.41,48.48,75.83,55,71,11.79,broken clouds,0.0,0.0
315,Sambava,MG,2020-02-21 07:13:45,-14.27,50.17,83.17,67,96,1.92,overcast clouds,0.0,0.0
316,Murdochville,CA,2020-02-21 07:13:45,48.96,-65.5,-14.4,94,0,5.46,clear sky,0.0,0.0
317,Serenje,ZM,2020-02-21 07:13:45,-13.23,30.24,69.01,91,86,3.71,overcast clouds,0.0,0.0
318,Sandy Bay,AU,2020-02-21 07:13:45,-42.91,147.35,63.0,41,20,18.34,few clouds,0.0,0.0
319,Aksarka,RU,2020-02-21 07:13:46,66.56,67.8,11.44,85,36,7.61,scattered clouds,0.0,0.0
320,Aykhal,RU,2020-02-21 07:13:46,66.0,111.5,3.2,84,63,6.71,broken clouds,0.0,0.0
321,Watertown,US,2020-02-21 07:13:46,42.37,-71.18,21.2,53,1,9.17,clear sky,0.0,0.0
322,Marystown,CA,2020-02-21 07:13:46,47.17,-55.15,14.86,80,93,23.87,light snow,0.0,0.38
323,Bacolod,PH,2020-02-21 07:10:08,10.67,122.95,84.81,55,40,9.48,light rain,0.44,0.0
324,Nago,JP,2020-02-21 07:13:47,26.59,127.98,71.6,60,40,14.99,scattered clouds,0.0,0.0
325,Cap Malheureux,MU,2020-02-21 07:13:47,-19.98,57.61,84.2,58,20,11.41,few clouds,0.0,0.0
326,Turukhansk,RU,2020-02-21 07:13:47,65.82,87.98,26.65,96,93,2.77,light snow,0.0,0.13
327,Semnan,IR,2020-02-21 07:13:47,35.57,53.4,46.33,64,27,2.24,scattered clouds,0.0,0.0
328,Cervo,ES,2020-02-21 07:13:47,43.67,-7.41,53.01,1,100,4.29,overcast clouds,0.0,0.0
329,Caconda,AO,2020-02-21 07:13:48,-13.73,15.07,62.46,88,55,1.95,broken clouds,0.0,0.0
330,Lavrentiya,RU,2020-02-21 07:13:48,65.58,-171.0,-16.89,91,0,7.36,clear sky,0.0,0.0
331,Maniitsoq,GL,2020-02-21 07:13:48,65.42,-52.9,11.43,53,100,3.47,overcast clouds,0.0,0.0
332,Zhob,PK,2020-02-21 07:13:48,31.34,69.45,53.02,43,32,3.87,scattered clouds,0.0,0.0
333,Grand Gaube,MU,2020-02-21 07:13:48,-20.01,57.66,84.2,58,20,11.41,few clouds,0.0,0.0
334,Chihuahua,MX,2020-02-21 07:11:38,28.5,-106.0,44.01,74,28,7.0,scattered clouds,0.0,0.0
335,Razole,IN,2020-02-21 07:13:49,16.48,81.83,84.65,45,0,7.49,clear sky,0.0,0.0
336,Kruisfontein,ZA,2020-02-21 07:13:49,-34.0,24.73,68.09,76,3,4.34,clear sky,0.0,0.0
337,Thinadhoo,MV,2020-02-21 07:13:49,0.53,72.93,84.06,79,32,14.03,scattered clouds,0.0,0.0
338,Lac Du Bonnet,CA,2020-02-21 07:13:50,50.25,-96.06,17.01,80,0,7.0,clear sky,0.0,0.0
339,Acapulco,MX,2020-02-21 07:12:23,16.86,-99.89,73.4,88,5,3.36,clear sky,0.0,0.0
340,Mareeba,AU,2020-02-21 07:13:50,-17.0,145.43,81.0,94,90,1.12,light intensity shower rain,0.0,0.0
341,Bathsheba,BB,2020-02-21 07:13:50,13.22,-59.52,77.0,69,40,18.34,scattered clouds,0.0,0.0
342,Camacari,BR,2020-02-21 07:10:29,-12.7,-38.32,78.8,83,20,4.7,few clouds,0.0,0.0
343,Kirakira,SB,2020-02-21 07:13:51,-10.45,161.92,81.28,81,40,5.14,light rain,0.56,0.0
344,Half Moon Bay,US,2020-02-21 07:13:51,37.46,-122.43,57.0,87,1,5.82,clear sky,0.0,0.0
345,Shihezi,CN,2020-02-21 07:13:51,44.3,86.03,21.52,88,84,4.68,broken clouds,0.0,0.0
346,Ardesen,TR,2020-02-21 07:13:51,41.19,40.99,48.2,70,40,2.24,scattered clouds,0.0,0.0
347,Ucluelet,CA,2020-02-21 07:09:45,48.93,-125.55,32.0,95,0,3.74,clear sky,0.0,0.0
348,Vanavara,RU,2020-02-21 07:13:52,60.34,102.28,22.33,90,100,9.55,overcast clouds,0.0,0.0
349,Novaya Igirma,RU,2020-02-21 07:13:52,57.13,103.91,24.76,88,100,9.91,light snow,0.0,0.19
350,Pyatnitskoye,RU,2020-02-21 07:13:52,50.42,37.83,31.12,87,92,4.09,overcast clouds,0.0,0.0
351,Baykit,RU,2020-02-21 07:13:53,61.67,96.37,20.35,91,100,4.43,light snow,0.0,0.13
352,Agirish,RU,2020-02-21 07:13:53,61.92,63.02,28.9,92,78,7.74,broken clouds,0.0,0.0
353,Requena,ES,2020-02-21 07:08:55,39.49,-1.1,46.0,100,0,2.24,clear sky,0.0,0.0
354,Yerbogachen,RU,2020-02-21 07:13:53,61.28,108.01,22.59,93,100,12.68,light snow,0.0,0.69
355,George,ZA,2020-02-21 07:13:53,-33.96,22.46,68.0,82,22,2.24,few clouds,0.0,0.0
356,Karpogory,RU,2020-02-21 07:13:54,64.0,44.45,7.21,92,43,5.46,scattered clouds,0.0,0.0
357,Fare,PF,2020-02-21 07:13:54,-16.7,-151.02,83.07,76,31,16.55,light rain,0.56,0.0
358,Caravelas,BR,2020-02-21 07:13:54,-17.71,-39.25,80.71,82,0,12.93,light rain,0.38,0.0
359,Kunmadaras,HU,2020-02-21 07:13:54,47.43,20.8,35.6,74,49,6.93,scattered clouds,0.0,0.0
360,Darab,IR,2020-02-21 07:12:05,28.75,54.54,63.43,35,0,4.47,clear sky,0.0,0.0
361,Dasoguz,TM,2020-02-21 07:13:54,41.84,59.97,41.0,86,90,9.17,light intensity shower rain,0.0,0.0
362,Bhadravati,IN,2020-02-21 07:13:55,13.87,75.72,87.6,22,10,10.78,clear sky,0.0,0.0
363,Gao,ML,2020-02-21 07:13:55,16.64,1.64,66.47,16,26,12.77,scattered clouds,0.0,0.0
364,Hauterive,FR,2020-02-21 07:13:55,46.09,3.45,37.99,85,75,3.36,broken clouds,0.0,0.0
365,Salalah,OM,2020-02-21 07:13:05,17.02,54.09,78.8,61,75,5.82,broken clouds,0.0,0.0
366,Bukene,TZ,2020-02-21 07:13:55,-4.23,32.88,71.4,87,98,2.13,overcast clouds,0.0,0.0
367,Miandrivazo,MG,2020-02-21 07:13:56,-19.52,45.47,77.92,82,100,5.39,light rain,1.5,0.0
368,Batticaloa,LK,2020-02-21 07:13:56,7.71,81.69,82.6,81,17,8.95,moderate rain,4.5,0.0
369,Kaeo,NZ,2020-02-21 07:13:56,-35.1,173.78,73.99,87,100,13.35,overcast clouds,0.0,0.0
370,Mananara,MG,2020-02-21 07:13:56,-16.17,49.77,80.13,71,85,2.51,overcast clouds,0.0,0.0
371,Yulara,AU,2020-02-21 07:13:56,-25.24,130.99,96.8,11,1,12.75,clear sky,0.0,0.0
372,Madzhalis,RU,2020-02-21 07:13:57,42.12,47.83,35.76,87,97,4.03,overcast clouds,0.0,0.0
373,Rapid Valley,US,2020-02-21 07:13:58,44.06,-103.15,37.99,62,1,5.82,clear sky,0.0,0.0
374,Alvaro Obregon,MX,2020-02-21 07:10:24,19.37,-99.22,57.2,58,40,9.17,scattered clouds,0.0,0.0
375,Roma,US,2020-02-21 07:10:01,43.21,-75.46,18.0,66,40,2.82,scattered clouds,0.0,0.0
376,Ban Nahin,LA,2020-02-21 07:13:58,18.24,104.21,88.83,29,0,8.28,clear sky,0.0,0.0
377,Micoud,LC,2020-02-21 07:13:59,13.82,-60.9,78.8,69,40,20.8,scattered clouds,0.0,0.0
378,Itanhem,BR,2020-02-21 07:13:59,-17.17,-40.33,69.37,96,2,2.91,clear sky,0.0,0.0
379,Dunedin,NZ,2020-02-21 07:12:12,-45.87,170.5,60.01,78,70,17.45,light rain,1.13,0.0
380,Sarangani,PH,2020-02-21 07:13:59,5.4,125.46,80.91,74,63,24.79,broken clouds,0.0,0.0
381,Oktyabrskoye,RU,2020-02-21 07:14:00,43.06,44.74,35.6,100,90,2.24,light intensity drizzle,0.0,0.0
382,Tuatapere,NZ,2020-02-21 07:14:00,-46.13,167.68,57.99,79,85,17.0,light rain,0.25,0.0
383,Lakatoro,VU,2020-02-21 07:14:00,-16.1,167.42,86.0,100,8,9.17,clear sky,0.0,0.0
384,Burnie,AU,2020-02-21 07:14:00,-41.07,145.92,64.99,44,66,11.99,broken clouds,0.0,0.0
385,Dumka,IN,2020-02-21 07:14:00,24.27,87.25,83.89,27,52,6.38,broken clouds,0.0,0.0
386,Gazli,UZ,2020-02-21 07:14:00,40.13,63.45,47.17,93,100,6.96,light rain,1.56,0.0
387,Moerai,PF,2020-02-21 07:14:01,-22.43,-151.33,81.16,79,100,9.78,light rain,0.19,0.0
388,Saint Anthony,US,2020-02-21 07:14:01,45.02,-93.22,12.2,77,1,6.93,clear sky,0.0,0.0
389,Yeniseysk,RU,2020-02-21 07:14:01,58.45,92.17,26.38,91,100,6.76,light snow,0.0,0.56
390,Siniscola,IT,2020-02-21 07:14:01,40.57,9.69,38.28,95,0,6.08,clear sky,0.0,0.0
391,Bandarbeyla,SO,2020-02-21 07:14:01,9.49,50.81,77.83,72,52,9.62,broken clouds,0.0,0.0
392,Lima,PE,2020-02-21 07:14:02,-12.04,-77.03,73.4,88,40,5.82,scattered clouds,0.0,0.0
393,Koulikoro,ML,2020-02-21 07:14:02,14.0,-7.75,71.19,16,17,7.27,few clouds,0.0,0.0
394,Talnakh,RU,2020-02-21 07:14:02,69.49,88.4,12.2,92,97,4.47,overcast clouds,0.0,0.0
395,Tshikapa,CD,2020-02-21 07:14:02,-6.42,20.8,74.23,85,100,1.52,overcast clouds,0.0,0.0
396,Iqaluit,CA,2020-02-21 07:09:48,63.75,-68.51,-38.0,65,20,12.75,few clouds,0.0,0.0
397,Katobu,ID,2020-02-21 07:14:03,-4.94,122.53,87.55,67,70,3.98,light rain,1.56,0.0
398,Bulungu,CD,2020-02-21 07:14:03,-4.55,18.6,75.2,82,100,2.17,overcast clouds,0.0,0.0
399,Namwala,ZM,2020-02-21 07:14:03,-15.75,26.44,69.55,94,6,3.09,light rain,1.06,0.0
400,Dicabisagan,PH,2020-02-21 07:14:03,17.08,122.42,74.5,80,46,13.51,light rain,1.25,0.0
401,Odessa,UA,2020-02-21 07:14:03,46.48,30.73,33.8,75,75,8.95,mist,0.0,0.0
402,Khipro,PK,2020-02-21 07:14:04,25.83,69.38,78.17,24,0,19.26,clear sky,0.0,0.0
403,Benguela,AO,2020-02-21 07:14:04,-12.58,13.41,78.8,88,40,2.26,scattered clouds,0.0,0.0
404,College,US,2020-02-21 07:14:04,64.86,-147.8,17.6,85,75,3.36,broken clouds,0.0,0.0
405,Dingle,PH,2020-02-21 07:14:04,11.0,122.67,79.12,78,72,18.05,light rain,2.75,0.0
406,Ryki,PL,2020-02-21 07:14:04,51.63,21.93,37.99,79,20,9.17,few clouds,0.0,0.0
407,Nadym,RU,2020-02-21 07:14:05,65.53,72.52,20.77,93,100,15.12,light snow,0.0,0.25
408,Lincoln,US,2020-02-21 07:12:21,40.8,-96.67,23.0,79,1,5.82,clear sky,0.0,0.0
409,Taua,BR,2020-02-21 07:14:05,-5.97,-40.3,70.29,97,100,3.74,moderate rain,4.88,0.0
410,Vostok,RU,2020-02-21 07:14:05,46.49,135.88,16.79,83,99,3.91,overcast clouds,0.0,0.0
411,Akdagmadeni,TR,2020-02-21 07:14:05,39.66,35.88,28.49,88,100,5.53,overcast clouds,0.0,0.0
412,Erzin,TR,2020-02-21 07:14:06,36.96,36.2,60.01,100,75,6.93,broken clouds,0.0,0.0
413,Mpanda,TZ,2020-02-21 07:14:06,-6.37,31.04,66.56,96,87,2.28,light rain,0.69,0.0
414,Libreville,GA,2020-02-21 07:14:06,0.39,9.45,73.4,94,75,10.29,thunderstorm with rain,0.0,0.0
415,Ocampo,MX,2020-02-21 07:14:06,21.65,-101.5,52.59,86,19,16.44,few clouds,0.0,0.0
416,Hearst,CA,2020-02-21 07:14:06,49.68,-83.67,14.07,86,29,9.24,scattered clouds,0.0,0.0
417,Librazhd,AL,2020-02-21 07:14:07,41.18,20.32,35.6,74,0,2.24,clear sky,0.0,0.0
418,Andenes,NO,2020-02-21 07:14:07,69.31,16.12,34.0,86,40,14.99,scattered clouds,0.0,0.0
419,Krasnoselkup,RU,2020-02-21 07:14:07,65.7,82.47,25.43,95,93,9.91,light snow,0.0,0.12
420,Gorontalo,ID,2020-02-21 07:14:07,0.54,123.06,87.55,55,77,0.6,light rain,0.44,0.0
421,Lerwick,GB,2020-02-21 07:14:07,60.15,-1.15,44.6,81,75,32.21,broken clouds,0.0,0.0
422,Bonavista,CA,2020-02-21 07:14:08,48.65,-53.11,9.0,63,21,24.0,few clouds,0.0,0.0
423,Tobol,KZ,2020-02-21 07:14:08,52.68,62.58,19.76,95,90,3.74,overcast clouds,0.0,0.0
424,Levelland,US,2020-02-21 07:14:09,33.59,-102.38,28.0,79,1,6.93,clear sky,0.0,0.0
425,Olinda,BR,2020-02-21 07:14:09,-8.01,-34.86,77.0,88,20,1.59,few clouds,0.0,0.0
426,Lagoa,PT,2020-02-21 07:14:09,39.05,-27.98,56.98,64,19,8.1,few clouds,0.0,0.0
427,Ravar,IR,2020-02-21 07:14:09,31.27,56.81,58.53,45,26,3.78,scattered clouds,0.0,0.0
428,Saint George,US,2020-02-21 07:13:32,37.1,-113.58,44.6,24,1,4.81,clear sky,0.0,0.0
429,Cascais,PT,2020-02-21 07:13:17,38.7,-9.42,55.0,76,0,4.7,clear sky,0.0,0.0
430,Shubarshi,KZ,2020-02-21 07:14:10,48.59,57.19,23.14,83,100,7.96,overcast clouds,0.0,0.0
431,Qasigiannguit,GL,2020-02-21 07:14:10,68.82,-51.19,-2.2,58,42,8.05,scattered clouds,0.0,0.0
432,Puerto Escondido,MX,2020-02-21 07:14:10,15.85,-97.07,72.9,65,33,3.13,scattered clouds,0.0,0.0
433,Kristianstad,SE,2020-02-21 07:14:10,56.03,14.15,39.2,80,20,11.41,few clouds,0.0,0.0
434,Ilulissat,GL,2020-02-21 07:14:11,69.22,-51.1,-2.2,58,42,8.05,scattered clouds,0.0,0.0
435,Mataram,ID,2020-02-21 07:14:11,-8.58,116.12,80.6,88,75,12.75,thunderstorm,0.0,0.0
436,Porto Walter,BR,2020-02-21 07:14:11,-8.27,-72.74,73.67,90,79,2.91,broken clouds,0.0,0.0
437,Cedar City,US,2020-02-21 07:14:11,37.68,-113.06,26.6,53,1,5.77,clear sky,0.0,0.0
438,Tarancon,ES,2020-02-21 07:14:12,40.01,-3.01,46.0,80,0,4.7,clear sky,0.0,0.0
439,Hailar,CN,2020-02-21 07:10:29,49.2,119.7,16.72,90,100,4.41,overcast clouds,0.0,0.0
440,Price,US,2020-02-21 07:13:25,39.6,-110.81,26.01,48,1,5.82,clear sky,0.0,0.0
441,Porto Tolle,IT,2020-02-21 07:14:12,44.95,12.32,39.99,86,16,8.05,few clouds,0.0,0.0
442,Horasan,TR,2020-02-21 07:14:12,40.05,42.17,26.26,89,93,1.23,overcast clouds,0.0,0.0
443,Hibbing,US,2020-02-21 07:14:12,47.43,-92.94,12.2,77,1,3.36,clear sky,0.0,0.0
444,La Romana,DO,2020-02-21 07:14:13,18.43,-68.97,77.0,73,40,11.41,scattered clouds,0.0,0.0
445,Valdivia,CL,2020-02-21 07:14:13,-39.81,-73.25,49.12,75,0,3.96,clear sky,0.0,0.0
446,Kochevo,RU,2020-02-21 07:14:13,59.6,54.31,29.61,93,94,6.85,overcast clouds,0.0,0.0
447,South Milwaukee,US,2020-02-21 07:12:28,42.91,-87.86,10.99,55,1,8.05,clear sky,0.0,0.0
448,Sovetsk,RU,2020-02-21 07:14:14,55.08,21.88,36.5,80,100,18.16,overcast clouds,0.0,0.0
449,Naryan-Mar,RU,2020-02-21 07:14:14,67.67,53.09,7.11,88,46,12.44,scattered clouds,0.0,0.0
450,Oriximina,BR,2020-02-21 07:14:14,-1.77,-55.87,74.23,87,97,4.74,overcast clouds,0.0,0.0
451,Akureyri,IS,2020-02-21 07:14:14,65.68,-18.09,32.0,97,90,9.17,light snow,0.0,0.0
452,Sao Joao Da Barra,BR,2020-02-21 07:14:15,-21.64,-41.05,75.96,90,10,9.44,clear sky,0.0,0.0
453,Zhigansk,RU,2020-02-21 07:14:15,66.77,123.37,-5.75,96,100,22.01,light snow,0.0,0.37
454,Ledyard,US,2020-02-21 07:14:15,41.44,-72.01,24.01,44,1,11.41,clear sky,0.0,0.0
455,Maseru,LS,2020-02-21 07:14:15,-29.32,27.48,67.73,58,0,2.91,clear sky,0.0,0.0
456,Esterhazy,CA,2020-02-21 07:14:15,50.65,-102.08,21.76,75,0,15.88,clear sky,0.0,0.0
457,Miraflores,MX,2020-02-21 07:14:16,19.22,-98.81,57.2,58,40,9.17,scattered clouds,0.0,0.0
458,Porto Novo,BJ,2020-02-21 07:14:16,6.5,2.6,80.6,94,20,2.24,mist,0.0,0.0
459,Birao,CF,2020-02-21 07:14:16,10.28,22.79,71.8,23,81,14.92,broken clouds,0.0,0.0
460,Bilibino,RU,2020-02-21 07:14:16,68.05,166.44,-22.7,98,100,1.43,overcast clouds,0.0,0.0
461,Nyagan,RU,2020-02-21 07:14:16,62.14,65.39,27.81,91,100,6.82,overcast clouds,0.0,0.0
462,Taoudenni,ML,2020-02-21 07:14:17,22.68,-3.98,64.47,18,0,7.02,clear sky,0.0,0.0
463,Nantucket,US,2020-02-21 07:09:44,41.28,-70.1,28.99,54,1,13.87,clear sky,0.0,0.0
464,Brunico,IT,2020-02-21 07:14:17,46.8,11.94,33.01,79,34,3.36,scattered clouds,0.0,0.0
465,Mnogovershinnyy,RU,2020-02-21 07:14:17,53.94,139.92,10.08,78,5,5.23,clear sky,0.0,0.0
466,Indramayu,ID,2020-02-21 07:14:17,-6.33,108.32,83.28,78,83,18.03,light rain,2.31,0.0
467,Kazanskoye,RU,2020-02-21 07:14:18,55.64,69.23,27.39,96,100,9.69,overcast clouds,0.0,0.0
468,Poyarkovo,RU,2020-02-21 07:14:18,49.6,128.68,6.96,94,100,7.11,overcast clouds,0.0,0.0
469,Tomatlan,MX,2020-02-21 07:14:18,19.93,-105.25,68.59,68,75,1.97,broken clouds,0.0,0.0
470,Yuli,NG,2020-02-21 07:14:18,9.7,10.27,71.29,22,21,7.81,few clouds,0.0,0.0
471,Phangnga,TH,2020-02-21 07:14:18,8.45,98.53,91.4,49,20,12.75,few clouds,0.0,0.0
472,Ambon,ID,2020-02-21 07:14:19,-3.7,128.18,82.94,78,79,15.39,broken clouds,0.0,0.0
473,Luanda,AO,2020-02-21 07:10:30,-8.84,13.23,80.6,88,75,3.36,broken clouds,0.0,0.0
474,Kowary,PL,2020-02-21 07:14:19,50.79,15.84,39.0,10,78,26.19,snow,0.0,2.75
475,Vao,NC,2020-02-21 07:14:20,-22.67,167.48,80.31,69,35,11.74,scattered clouds,0.0,0.0
476,Broken Hill,AU,2020-02-21 07:14:21,-31.95,141.43,78.8,26,9,16.11,clear sky,0.0,0.0
477,Arkhangelskoye,RU,2020-02-21 07:14:21,55.85,35.33,31.5,95,20,6.85,few clouds,0.0,0.0
478,Barra Do Corda,BR,2020-02-21 07:14:21,-5.5,-45.25,70.54,99,100,3.04,moderate rain,4.13,0.0
479,Klyuchi,RU,2020-02-21 07:14:22,52.27,79.17,23.92,86,100,8.84,overcast clouds,0.0,0.0
480,Ciomas,ID,2020-02-21 07:14:22,-7.15,108.29,85.12,62,65,6.85,light rain,1.69,0.0
481,Oksfjord,NO,2020-02-21 07:14:22,70.24,22.35,32.0,86,40,3.36,light snow,0.0,0.0
482,Wuwei,CN,2020-02-21 07:14:22,37.93,102.64,35.01,29,0,4.54,clear sky,0.0,0.0
483,Gambela,ET,2020-02-21 07:14:23,8.25,34.58,88.32,28,23,4.79,few clouds,0.0,0.0
484,San Policarpo,PH,2020-02-21 07:14:23,12.18,125.51,78.39,83,55,21.63,moderate rain,3.44,0.0
485,San Ramon,US,2020-02-21 07:14:23,37.78,-121.98,57.0,54,1,6.93,clear sky,0.0,0.0
486,Bardiyah,LY,2020-02-21 07:14:23,31.76,25.09,57.97,62,48,25.99,scattered clouds,0.0,0.0
487,Saint-Michel-Des-Saints,CA,2020-02-21 07:09:49,46.68,-73.92,-2.0,7,89,5.32,overcast clouds,0.0,0.0
488,Tromso,NO,2020-02-21 07:14:24,69.65,18.96,32.0,95,75,19.46,shower rain,0.0,0.0
489,Pietroasa,RO,2020-02-21 07:14:24,46.58,22.55,32.0,82,0,5.82,clear sky,0.0,0.0
490,Recife,BR,2020-02-21 07:09:29,-8.05,-34.88,77.0,88,20,1.59,few clouds,0.0,0.0
491,Makokou,GA,2020-02-21 07:14:24,0.57,12.86,74.14,75,86,2.39,overcast clouds,0.0,0.0
492,Guliston,UZ,2020-02-21 07:14:24,40.49,68.78,50.85,36,100,10.31,overcast clouds,0.0,0.0
493,Kieta,PG,2020-02-21 07:14:24,-6.22,155.63,85.12,68,56,4.03,light rain,2.81,0.0
494,Arman,RU,2020-02-21 07:14:25,59.7,150.17,-3.44,88,0,6.4,clear sky,0.0,0.0
495,Finnsnes,NO,2020-02-21 07:14:25,69.23,17.98,34.0,92,75,29.97,broken clouds,0.0,0.0
496,Antofagasta,CL,2020-02-21 07:14:25,-23.65,-70.4,66.2,88,21,1.12,few clouds,0.0,0.0
497,Serik,TR,2020-02-21 07:14:25,36.92,31.1,51.8,93,75,8.05,thunderstorm with light rain,0.0,0.0
498,Muisne,EC,2020-02-21 07:14:25,0.6,-80.03,74.88,90,38,6.82,scattered clouds,0.0,0.0
499,Pacific Grove,US,2020-02-21 07:14:26,36.62,-121.92,55.0,71,1,4.09,clear sky,0.0,0.0
500,Christchurch,NZ,2020-02-21 07:13:14,-43.53,172.63,82.4,34,73,11.41,broken clouds,0.0,0.0
501,Shizuishan,CN,2020-02-21 07:14:26,39.23,106.77,34.34,25,41,25.01,scattered clouds,0.0,0.0
502,Sao Sebastiao,BR,2020-02-21 07:14:26,-23.76,-45.41,80.17,82,96,6.38,moderate rain,3.69,0.0
503,Balozi,LV,2020-02-21 07:14:26,56.88,24.12,35.6,80,20,19.46,few clouds,0.0,0.0
504,Saurimo,AO,2020-02-21 07:14:27,-9.66,20.39,69.49,92,70,2.48,broken clouds,0.0,0.0
505,Eureka,US,2020-02-21 07:14:27,40.8,-124.16,43.0,87,1,3.65,clear sky,0.0,0.0
506,San Pedro,PH,2020-02-21 07:14:27,14.35,121.02,91.4,46,20,12.75,few clouds,0.0,0.0
507,Polunochnoye,RU,2020-02-21 07:14:28,60.87,60.42,28.99,87,95,3.87,overcast clouds,0.0,0.0
508,Hualmay,PE,2020-02-21 07:14:28,-11.1,-77.61,70.66,86,100,3.09,overcast clouds,0.0,0.0
509,Karpathos,GR,2020-02-21 07:14:28,35.51,27.21,53.6,87,75,21.92,light rain,0.0,0.0
510,Whitehorse,CA,2020-02-21 07:14:26,60.72,-135.05,28.4,74,5,21.92,clear sky,0.0,0.0
511,Fairbanks,US,2020-02-21 07:09:50,64.84,-147.72,16.0,85,75,3.36,broken clouds,0.0,0.0
512,Panama City,PA,2020-02-21 07:14:14,8.99,-79.52,78.01,88,91,2.24,overcast clouds,0.0,0.0
513,Boda,CF,2020-02-21 07:14:29,4.32,17.47,76.33,51,64,2.91,broken clouds,0.0,0.0
514,Dalby,AU,2020-02-21 07:14:29,-27.18,151.27,84.2,48,75,11.41,broken clouds,0.0,0.0
515,Sabancuy,MX,2020-02-21 07:14:29,18.97,-91.18,77.18,76,0,6.22,clear sky,0.0,0.0
516,Georgetown,MY,2020-02-21 07:10:49,5.41,100.34,95.0,41,20,16.11,few clouds,0.0,0.0
517,Praya,CV,2020-02-21 07:14:30,14.92,-23.51,68.0,77,18,17.22,few clouds,0.0,0.0
518,Marataizes,BR,2020-02-21 07:14:16,-21.04,-40.82,71.85,90,33,4.52,scattered clouds,0.0,0.0
519,Sabha,LY,2020-02-21 07:14:30,27.04,14.43,49.53,62,0,9.15,clear sky,0.0,0.0
520,Jiujiang,CN,2020-02-21 07:14:14,29.73,115.98,50.52,80,99,2.73,light rain,0.25,0.0
521,Argir,FO,2020-02-21 07:14:30,62.0,-6.77,41.0,86,97,27.51,light rain,0.0,0.0
522,Stromness,GB,2020-02-21 07:14:31,58.97,-3.3,41.0,86,40,27.51,scattered clouds,0.0,0.0
523,Mahuva,IN,2020-02-21 07:14:31,21.09,71.76,72.72,57,47,7.14,scattered clouds,0.0,0.0
524,Guerrero Negro,MX,2020-02-21 07:14:31,27.98,-114.06,64.96,56,62,6.62,broken clouds,0.0,0.0
525,Daru,PG,2020-02-21 07:14:31,-9.08,143.21,85.96,80,100,5.06,moderate rain,3.44,0.0
526,Salekhard,RU,2020-02-21 07:14:31,66.53,66.6,8.78,79,47,7.92,scattered clouds,0.0,0.0
527,Bokaro,IN,2020-02-21 07:14:32,23.78,85.97,83.43,25,62,8.12,broken clouds,0.0,0.0
528,Marrakesh,MA,2020-02-21 07:12:38,31.63,-8.01,48.2,81,29,5.82,scattered clouds,0.0,0.0
529,Tolaga Bay,NZ,2020-02-21 07:14:32,-38.37,178.3,74.23,69,3,15.3,clear sky,0.0,0.0
530,Astoria,US,2020-02-21 07:14:32,46.19,-123.83,37.99,70,1,4.7,clear sky,0.0,0.0
531,Oranjemund,NA,2020-02-21 07:14:32,-28.55,16.43,63.52,85,87,11.52,overcast clouds,0.0,0.0
532,Tripoli,LY,2020-02-21 07:14:33,32.88,13.19,58.71,68,93,11.56,overcast clouds,0.0,0.0
533,Nizhnyaya Poyma,RU,2020-02-21 07:14:33,56.16,97.19,27.37,92,100,12.33,light snow,0.0,1.19
534,Port Augusta,AU,2020-02-21 07:14:33,-32.5,137.77,81.0,49,0,24.16,clear sky,0.0,0.0
535,Kingaroy,AU,2020-02-21 07:14:33,-26.53,151.83,77.0,88,75,17.22,heavy intensity shower rain,0.0,0.0
536,Bayji,IQ,2020-02-21 07:14:33,34.93,43.49,56.77,73,0,0.81,clear sky,0.0,0.0
537,Portlethen,GB,2020-02-21 07:14:34,57.05,-2.13,44.01,80,20,16.11,few clouds,0.0,0.0
538,Hokitika,NZ,2020-02-21 07:14:34,-42.72,170.97,65.7,89,52,14.58,moderate rain,3.06,0.0
539,Kysyl-Syr,RU,2020-02-21 07:14:34,63.9,122.76,1.4,97,100,7.96,light snow,0.0,0.19
540,Upata,VE,2020-02-21 07:14:34,8.01,-62.4,67.6,85,99,3.27,overcast clouds,0.0,0.0
541,Torrington,US,2020-02-21 07:14:34,41.8,-73.12,21.99,48,1,6.93,clear sky,0.0,0.0
542,Heze,CN,2020-02-21 07:14:35,35.24,115.44,60.6,25,17,9.15,few clouds,0.0,0.0
543,Lokosovo,RU,2020-02-21 07:14:35,61.13,74.82,29.3,95,96,5.46,overcast clouds,0.0,0.0
544,Ostersund,SE,2020-02-21 07:12:22,63.18,14.64,32.0,82,100,4.7,heavy snow,0.0,0.0
545,Pskov,RU,2020-02-21 07:14:35,57.81,28.35,37.4,69,20,11.18,few clouds,0.0,0.0
546,Mezhdurechensk,RU,2020-02-21 07:14:35,53.69,88.06,31.14,73,100,10.27,overcast clouds,0.0,0.0
547,Camacha,PT,2020-02-21 07:14:36,33.08,-16.33,57.2,82,40,12.75,scattered clouds,0.0,0.0
548,Rio Grande,BR,2020-02-21 07:14:36,-32.03,-52.1,64.8,63,0,17.36,clear sky,0.0,0.0
549,Lulea,SE,2020-02-21 07:12:57,65.58,22.15,33.8,98,75,16.11,broken clouds,0.0,0.0
550,Gazojak,TM,2020-02-21 07:14:37,41.19,61.4,41.13,75,100,7.49,light rain,0.63,0.0
551,Banepa,NP,2020-02-21 07:14:37,27.63,85.52,60.8,72,75,2.24,haze,0.0,0.0
552,Oranjestad,AW,2020-02-21 07:14:38,12.52,-70.03,78.8,78,20,16.11,few clouds,0.0,0.0
553,Ondjiva,AO,2020-02-21 07:13:41,-17.07,15.73,71.6,88,75,4.7,broken clouds,0.0,0.0
554,Muros,ES,2020-02-21 07:14:40,42.78,-9.06,51.01,100,31,6.93,scattered clouds,0.0,0.0
555,Mul,IN,2020-02-21 07:14:41,20.07,79.67,87.42,35,0,8.21,clear sky,0.0,0.0
556,Nouadhibou,MR,2020-02-21 07:14:41,20.93,-17.03,62.6,72,0,20.8,clear sky,0.0,0.0
557,Kropotkin,RU,2020-02-21 07:14:42,45.44,40.58,39.96,88,100,13.62,light rain,0.63,0.0
558,Datong,CN,2020-02-21 07:11:24,40.09,113.29,33.31,28,100,19.46,overcast clouds,0.0,0.0
559,Ozinki,RU,2020-02-21 07:14:43,51.18,49.68,29.82,93,100,8.12,overcast clouds,0.0,0.0
560,Narrabri,AU,2020-02-21 07:14:44,-30.32,149.78,87.01,28,69,9.17,broken clouds,0.0,0.0
561,Akyab,MM,2020-02-21 07:14:44,20.15,92.9,77.97,40,0,5.32,clear sky,0.0,0.0
562,Houston,US,2020-02-21 07:10:38,29.76,-95.36,46.0,70,40,8.05,scattered clouds,0.0,0.0
563,Tura,IN,2020-02-21 07:14:45,25.52,90.22,89.31,28,0,1.68,clear sky,0.0,0.0
564,Hamilton,US,2020-02-21 07:10:55,39.18,-84.53,21.2,85,1,4.7,clear sky,0.0,0.0
565,Noumea,NC,2020-02-21 07:14:45,-22.28,166.46,86.0,55,90,9.17,overcast clouds,0.0,0.0
